     2.11           OBSERVATION DATA    M (MIXED)           RINEX VERSION / TYPE
teqc  2019Feb25     KASI/KOREA          20250415 00:17:31UTCPGM / RUN BY / DATE
Linux 2.4.20-8|x86|gcc -static|Linux 32|=+                  COMMENT
  0.0000      (antenna height)                              COMMENT
 +36.39942706 (latitude)                                    COMMENT
+127.37448509 (longitude)                                   COMMENT
0116.854      (elevation)                                   COMMENT
BIT 2 OF LLI FLAGS DATA COLLECTED UNDER A/S CONDITION       COMMENT
23902M002 (COGO code)                                       COMMENT
DAEJ                                                        MARKER NAME
23902M002                                                   MARKER NUMBER
KASI GPS            KASI/KOREA                              OBSERVER / AGENCY
5412K48145          TRIMBLE NETR9       5.44                REC # / TYPE / VERS
4923363230          TRM59800.00     SCIS                    ANT # / TYPE
 -3120041.7752  4084614.9818  3764027.3812                  APPROX POSITION XYZ
        0.0000        0.0000        0.0000                  ANTENNA: DELTA H/E/N
     1     1                                                WAVELENGTH FACT L1/2
    10    L1    L2    L5    C1    P1    P2    C5    S1    S2# / TYPES OF OBSERV
          S5                                                # / TYPES OF OBSERV
    18                                                      LEAP SECONDS
 SNR is mapped to RINEX snr flag value [0-9]                COMMENT
  L1 & L2: min(max(int(snr_dBHz/6), 0), 9)                  COMMENT
  2025     4    15     0     0    0.0000000     GPS         TIME OF FIRST OBS
                                                            END OF HEADER
 25  4 15  0  0  0.0000000  0 21R10G09R18G27G02G04R16G16G26R07R08R19
                                R09G07G08E26E13E04E19E21E23
 122308027.749 5                                  22944660.195    22944659.059
                                        30.100
 121580618.443 6  94738124.86745  90790689.413 7  23136018.820
  23136030.523    23136033.090          36.800          32.400          44.500
 112271707.884 6  87322355.619 6                  21032240.539    21032240.219
  21032248.867                          41.600          41.100
 106381872.496 7  82895050.81948  79441089.276 8  20243808.188
  20243818.105    20243818.250          47.300          50.200          52.700
 118646254.174 6  92451631.40044                  22577615.984
  22577625.781                          39.300          25.800
 122875847.264 5  95747443.96943  91757980.938 7  23382512.297
  23382525.652    23382530.605          33.800          19.900          42.700
 110114385.523 7  85644569.388 7                  20613641.445    20613640.219
  20613648.676                          45.200          43.200
 113245216.555 7  88243038.56745                  21549836.789
  21549845.813                          42.400          30.900
 122393494.118 6  95371560.66543  91397741.876 7  23290682.586
  23290697.230    23290697.184          37.200          22.200          43.600
 127044683.549 5  98812530.931 5                  23733026.008    23733025.262
  23733036.918                          30.800          33.400
 126635650.220 5  98494474.084 5                  23648329.680    23648328.801
  23648337.586                          33.200          31.500
 103768266.110 5  80708517.600 7                  19398337.930    19398336.875
  19398344.086                          35.500          42.900
 106336104.313 7  82705880.823 7                  19913334.828    19913334.098
  19913340.609                          44.800          45.600
 120569333.100 6  93950187.79345                  22943584.797
  22943593.004                          39.600          34.800
 106025596.679 7  82617418.26048  79175022.403 8  20175998.602
  20176008.707    20176008.629          46.200          48.900          52.000
 133618163.175 7                  99779853.813 7  25426686.391
                  25426696.340          42.100                          44.900
 131256880.094 7                  98016564.231 7  24977347.391
                  24977358.785          43.200                          46.300
 136820960.916 6                 102171516.230 7  26036168.219
                  26036178.617          39.600                          43.700
 136966467.343 5                 102280155.737 6  26063866.750
                  26063877.961          33.800                          36.200
 127659670.275 7                  95330311.663 8  24292826.234
                  24292835.375          45.100                          48.800
 127969763.209 7                  95561873.049 7  24351835.578
                  24351844.004          45.700                          47.400
 25  4 15  0  0  1.0000000  0 21R10G09R18G27G02G04R16G16G26R07R08R19
                                R09G07G08E26E13E04E19E21E23
 122304782.309 5                                  22944051.953    22944050.258
                                        30.200
 121582453.671 6  94739554.90945  90792059.887 7  23136368.094
  23136379.539    23136382.250          36.400          31.600          44.800
 112274719.503 6  87324697.994 6                  21032804.273    21032804.238
  21032812.969                          41.800          41.200
 106383352.738 7  82896204.25148  79442194.642 8  20244090.172
  20244099.848    20244099.855          46.700          50.300          52.600
 118642958.671 6  92449063.47344                  22576989.172
  22576998.805                          39.200          26.300
 122878752.735 5  95749707.94843  91760150.619 7  23383065.242
  23383078.570    23383083.500          33.400          19.600          42.300
 110115915.224 7  85645759.151 7                  20613927.227    20613927.043
  20613935.160                          44.800          43.600
 113247087.110 6  88244496.14045                  21550192.563
  21550201.699                          41.700          31.500
 122395988.769 6  95373504.53643  91399604.758 7  23291157.398
  23291172.121    23291172.008          37.100          22.300          43.700
 127047673.460 5  98814856.408 5                  23733584.195    23733583.789
  23733595.547                          31.200          33.300
 126636460.701 5  98495104.442 5                  23648482.180    23648480.145
  23648488.906                          33.700          31.700
 103767939.563 5  80708263.626 7                  19398277.117    19398275.797
  19398283.027                          34.500          43.700
 106334315.922 7  82704489.847 7                  19912999.656    19912999.125
  19913005.684                          44.600          46.000
 120566464.233 6  93947952.32045                  22943037.844
  22943046.902                          39.400          34.900
 106024593.472 7  82616636.53948  79174273.261 8  20175807.656
  20175817.977    20175817.793          45.800          49.000          52.100
 133615532.292 6                  99777889.177 7  25426186.023
                  25426195.695          41.700                          44.900
 131256634.320 7                  98016380.725 7  24977300.305
                  24977311.969          43.000                          46.400
 136821790.688 6                 102172135.865 7  26036326.414
                  26036336.488          39.400                          43.800
 136969209.558 5                 102282203.482 6  26064388.703
                  26064399.688          33.500                          36.100
 127660414.456 7                  95330867.385 8  24292967.836
                  24292976.980          45.100                          49.100
 127968660.432 7                  95561049.553 7  24351625.930
                  24351634.191          45.300                          47.800
 25  4 15  0  0  2.0000000  0 21R10G09R18G27G02G04R16G16G26R07R08R19
                                R09G07G08E26E13E04E19E21E23
 122301536.747 5                                  22943443.133    22943441.777
                                        30.000
 121584289.307 6  94740985.27245  90793430.651 7  23136717.070
  23136728.863    23136731.539          36.700          31.700          44.500
 112277731.673 6  87327040.800 6                  21033369.547    21033368.801
  21033377.137                          41.500          41.600
 106384833.381 7  82897358.00448  79443300.316 8  20244371.711
  20244381.594    20244381.586          46.700          50.300          52.600
 118639663.383 6  92446495.72244                  22576362.742
  22576371.676                          39.200          28.100
 122881658.362 5  95751972.05743  91762320.406 7  23383618.250
  23383631.504    23383636.223          33.400          19.600          42.500
 110117445.310 7  85646949.212 7                  20614213.164    20614213.461
  20614221.508                          45.200          44.000
 113248957.818 6  88245953.83745                  21550549.023
  21550557.648                          41.400          31.400
 122398483.520 6  95375448.50443  91401467.704 7  23291632.430
  23291646.711    23291646.703          37.500          22.200          44.100
 127050663.643 5  98817182.075 5                  23734143.930    23734142.164
  23734154.211                          31.100          33.900
 126637271.904 5  98495735.377 5                  23648634.250    23648631.531
  23648640.348                          33.500          31.200
 103767613.949 5  80708010.335 7                  19398215.930    19398214.777
  19398222.262                          34.700          43.700
 106332527.789 7  82703099.072 7                  19912664.719    19912664.211
  19912670.727                          44.700          46.400
 120563595.556 6  93945716.98545                  22942492.508
  22942500.906                          39.000          35.000
 106023590.726 7  82615855.18248  79173524.455 8  20175616.758
  20175626.992    20175627.055          46.000          49.000          52.500
 133612901.610 7                  99775924.726 7  25425685.008
                  25425694.938          42.100                          44.900
 131256389.024 7                  98016197.532 7  24977253.656
                  24977265.293          43.200                          46.400
 136822620.896 6                 102172755.809 7  26036484.367
                  26036494.508          39.000                          43.600
 136971951.771 5                 102284251.267 6  26064910.461
                  26064921.445          33.400                          36.200
 127661158.705 7                  95331423.149 8  24293109.508
                  24293118.641          45.500                          49.200
 127967557.682 7                  95560226.073 8  24351415.906
                  24351424.328          45.100                          48.100
 25  4 15  0  0  3.0000000  0 21R10G09R18G27G02G04R16G16G26R07R08R19
                                R09G07G08E26E13E04E19E21E23
 122298291.158 5                                  22942834.492    22942832.973
                                        30.100
 121586125.373 6  94742415.97745  90794801.749 7  23137066.211
  23137078.313    23137080.734          36.900          31.400          44.500
 112280744.503 6  87329384.100 7                  21033934.297    21033933.066
  21033941.668                          41.500          42.100
 106386314.491 7  82898512.10948  79444406.341 8  20244653.813
  20244663.551    20244663.488          46.500          50.300          52.600
 118636368.437 6  92443928.23144                  22575735.586
  22575744.641                          39.500          28.100
 122884564.167 5  95754236.31343  91764490.329 7  23384171.547
  23384184.422    23384189.254          32.900          19.600          42.700
 110118975.877 7  85648139.639 7                  20614500.078    20614499.992
  20614508.188                          45.100          44.100
 113250828.756 6  88247411.69445                  21550904.836
  21550913.703                          41.400          30.900
 122400978.396 6  95377392.56143  91403330.800 7  23292107.141
  23292121.574    23292121.488          37.300          23.600          43.700
 127053654.010 5  98819507.963 5                  23734702.734    23734700.598
  23734712.953                          31.300          33.100
 126638083.799 5  98496366.910 5                  23648786.477    23648783.664
  23648791.875                          33.600          30.800
 103767289.256 5  80707757.801 7                  19398155.609    19398154.156
  19398161.500                          35.100          44.100
 106330739.979 7  82701708.558 7                  19912329.391    19912329.621
  19912336.008                          44.500          46.300
 120560727.175 6  93943481.88445                  22941946.633
  22941955.223                          39.000          34.700
 106022588.511 7  82615074.23748  79172776.052 8  20175426.281
  20175436.332    20175436.184          46.400          49.100          52.400
 133610271.195 7                  99773960.435 7  25425184.367
                  25425194.438          42.300                          45.200
 131256144.222 7                  98016014.746 7  24977207.281
                  24977218.688          43.700                          46.300
 136823451.508 6                 102173376.091 7  26036642.469
                  26036652.340          39.300                          43.600
 136974694.135 5                 102286299.118 6  26065432.453
                  26065443.559          34.300                          36.200
 127661903.097 7                  95331979.015 8  24293251.117
                  24293260.281          45.600                          49.200
 127966455.033 7                  95559402.662 8  24351206.063
                  24351214.398          45.300                          48.300
 25  4 15  0  0  4.0000000  0 21R10G09R18G27G02G04R16G16G26R07R08R19
                                R09G07G08E26E13E04E19E21E23
 122295045.581 5                                  22942225.219    22942224.168
                                        30.400
 121587961.886 6  94743847.01945  90796173.159 7  23137416.148
  23137427.723    23137430.223          36.900          31.200          44.300
 112283757.947 6  87331727.894 7                  21034499.125    21034497.531
  21034506.277                          41.200          42.200
 106387796.073 7  82899666.58848  79445512.709 8  20244935.367
  20244945.383    20244945.395          46.700          50.500          52.600
 118633073.748 6  92441360.94144                  22575108.766
  22575117.715                          39.100          27.400
 122887470.150 5  95756500.70443  91766660.369 7  23384724.430
  23384737.441    23384742.465          34.300          19.600          42.600
 110120506.822 7  85649330.388 7                  20614787.094    20614786.449
  20614795.020                          44.900          44.400
 113252699.891 6  88248869.71645                  21551260.594
  21551269.621                          41.800          31.100
 122403473.515 6  95379336.80943  91405193.998 7  23292581.797
  23292596.211    23292596.293          37.500          22.300          43.900
 127056644.717 5  98821834.036 5                  23735260.906    23735259.645
  23735271.785                          31.300          33.100
 126638896.522 5  98496998.963 5                  23648939.047    23648935.668
  23648943.590                          34.100          32.600
 103766965.517 5  80707506.005 7                  19398095.367    19398093.660
  19398101.055                          35.300          44.400
 106328952.540 7  82700318.324 7                  19911995.344    19911994.977
  19912001.281                          44.500          46.400
 120557859.069 6  93941247.00045                  22941400.977
  22941409.684                          39.400          34.800
 106021586.802 7  82614293.69048  79172028.031 8  20175235.320
  20175245.680    20175245.590          46.400          49.000          52.700
 133607641.018 7                  99771996.345 7  25424684.180
                  25424693.773          42.400                          44.800
 131255899.944 7                  98015832.336 7  24977160.883
                  24977172.180          43.600                          46.200
 136824282.578 6                 102173996.683 7  26036800.594
                  26036810.719          39.600                          43.600
 136977436.61515                 102288347.040 6  26065954.375
                  26065965.477          33.400                          36.400
 127662647.583 7                  95332534.957 8  24293392.805
                  24293401.887          45.100                          49.100
 127965352.471 7                  95558579.318 8  24350996.336
                  24351004.719          45.700                          48.600
 25  4 15  0  0  5.0000000  0 21R10G09R18G27G02G04R16G16G26R07R08R19
                                R09G07G08E26E13E04E19E21E23
 122291799.950 5                                  22941617.141    22941615.598
                                        30.300
 121589798.802 6  94745278.38445  90797544.904 7  23137765.313
  23137777.371    23137779.641          37.100          31.600          44.400
 112286771.971 6  87334072.135 7                  21035063.102    21035061.973
  21035070.930                          41.300          42.200
 106389278.100 7  82900821.41748  79446619.423 8  20245217.328
  20245227.371    20245227.438          46.600          50.400          52.800
 118629779.369 6  92438793.90144                  22574481.148
  22574490.969                          38.900          27.500
 122890376.323 5  95758765.25743  91768830.543 7  23385277.766
  23385290.352    23385295.172          34.500          20.100          42.600
 110122038.211 7  85650521.467 7                  20615073.648    20615073.168
  20615081.637                          45.000          44.200
 113254571.247 6  88250327.92545                  21551616.891
  21551625.832                          41.800          31.000
 122405968.710 6  95381281.11143  91407057.299 7  23293057.031
  23293071.125    23293071.070          37.300          21.800          44.100
 127059635.708 5  98824160.332 5                  23735818.664    23735818.531
  23735830.613                          31.900          33.700
 126639709.854 5  98497631.613 5                  23649090.039    23649088.082
  23649095.609                          33.800          32.000
 103766642.728 5  80707254.922 7                  19398034.727    19398033.391
  19398040.563                          35.600          44.000
 106327165.419 7  82698928.343 7                  19911660.289    19911660.246
  19911666.645                          44.800          46.700
 120554991.228 6  93939012.32245                  22940854.391
  22940863.816                          39.300          34.800
 106020585.602 7  82613513.52948  79171280.370 8  20175044.883
  20175055.164    20175055.082          46.300          49.000          52.500
 133605011.054 7                  99770032.407 7  25424183.836
                  25424193.523          42.400                          45.100
 131255656.192 7                  98015650.287 7  24977114.703
                  24977125.820          43.300                          46.500
 136825114.075 6                 102174617.605 7  26036958.656
                  26036968.816          38.900                          43.200
 136980179.104 5                 102290395.021 6  26066476.164
                  26066487.184          34.100                          36.500
 127663392.177 7                  95333090.990 8  24293534.547
                  24293543.723          45.500                          49.000
 127964249.959 7                  95557756.018 8  24350786.688
                  24350794.773          45.500                          48.500
 25  4 15  0  0  6.0000000  0 21R10G09R18G27G02G04R16G16G26R07R08R19
                                R09G07G08E26E13E04E19E21E23
 122288554.298 5                                  22941007.281    22941006.355
                                        30.200
 121591636.109 6  94746710.05345  90798916.920 7  23138115.242
  23138127.086    23138129.441          36.100          31.200          44.600
 112289786.581 6  87336416.841 6                  21035627.977    21035627.043
  21035635.617                          41.300          41.900
 106390760.565 7  82901976.58648  79447726.452 8  20245499.086
  20245509.516    20245509.566          46.400          50.300          52.800
 118626485.235 6  92436227.04244                  22573854.359
  22573864.125                          39.000          26.700
 122893282.585 5  95761029.89943  91771000.789 7  23385830.586
  23385843.328    23385848.633          34.200          19.600          42.700
 110123570.021 7  85651712.861 7                  20615360.266    20615359.957
  20615368.449                          45.200          44.200
 113256442.772 6  88251786.25045                  21551973.539
  21551981.836                          41.700          31.400
 122408464.058 6  95383225.53843  91408920.697 7  23293530.859
  23293546.145    23293545.883          37.100          22.200          43.800
 127062626.963 5  98826486.874 5                  23736379.250    23736376.789
  23736389.566                          31.200          33.400
 126640523.998 5  98498264.771 5                  23649241.836    23649240.254
  23649247.582                          34.200          32.300
 103766320.788 5  80707004.544 7                  19397973.805    19397973.164
  19397980.449                          35.000          44.300
 106325378.584 7  82697538.579 7                  19911325.992    19911325.664
  19911332.000                          44.800          46.800
 120552123.598 6  93936777.79545                  22940309.195
  22940318.191                          39.500          34.000
 106019584.878 7  82612733.74448  79170533.084 8  20174854.570
  20174864.816    20174864.707          46.400          49.000          52.200
 133602381.316 7                  99768068.651 7  25423683.273
                  25423692.770          42.700                          45.100
 131255412.888 7                  98015468.607 7  24977068.211
                  24977079.574          43.400                          46.500
 136825945.985 6                 102175238.820 7  26037116.914
                  26037127.406          38.700                          43.500
 136982921.685 5                 102292443.034 6  26066998.031
                  26067009.277          33.200                          36.600
 127664136.869 7                  95333647.086 8  24293676.063
                  24293685.395          45.600                          48.500
 127963147.513 7                  95556932.754 8  24350576.984
                  24350585.016          45.600                          48.300
 25  4 15  0  0  7.0000000  0 21R10G09R18G27G02G04R16G16G26R07R08R19
                                R09G07G08E26E13E04E19E21E23
 122285308.592 4                                  22940399.063    22940397.285
                                        29.400
 121593473.902 5  94748142.09745  90800289.268 7  23138465.055
  23138476.676    23138479.109          35.900          31.500          44.500
 112292801.826 6  87338762.017 7                  21036193.648    21036191.930
  21036200.297                          41.200          42.100
 106392243.471 7  82903132.09148  79448833.818 8  20245781.563
  20245791.730    20245791.711          46.300          50.300          52.500
 118623191.385 6  92433660.40944                  22573227.531
  22573237.215                          39.300          27.500
 122896189.034 5  95763294.66843  91773171.203 7  23386383.438
  23386396.293    23386401.523          33.700          19.900          42.400
 110125102.265 7  85652904.605 7                  20615647.203    20615646.684
  20615655.277                          45.300          44.500
 113258314.517 6  88253244.75545                  21552329.313
  21552337.934                          41.700          31.400
 122410959.555 6  95385170.06043  91410784.225 7  23294006.164
  23294021.016    23294020.672          37.000          22.800          43.200
 127065618.508 5  98828813.592 5                  23736938.969    23736935.949
  23736948.504                          32.100          33.800
 126641338.756 5  98498898.501 5                  23649394.563    23649392.996
  23649399.609                          34.000          32.200
 103765999.778 5  80706754.930 7                  19397914.594    19397913.137
  19397920.453                          34.900          44.000
 106323592.057 7  82696149.071 7                  19910991.938    19910990.969
  19910997.484                          44.900          47.000
 120549256.276 6  93934543.51945                  22939763.633
  22939772.559                          39.600          34.600
 106018584.654 7  82611954.35548  79169786.178 8  20174663.922
  20174674.285    20174674.250          46.000          48.900          52.200
 133599751.824 7                  99766105.062 7  25423183.031
                  25423192.566          42.700                          44.600
 131255170.104 7                  98015287.311 7  24977021.914
                  24977033.422          43.900                          46.300
 136826778.314 6                 102175860.372 7  26037275.398
                  26037285.801          39.300                          43.800
 136985664.313 5                 102294491.106 6  26067519.797
                  26067531.074          33.400                          36.000
 127664881.660 7                  95334203.260 8  24293817.992
                  24293827.141          45.800                          48.400
 127962045.131 7                  95556109.557 8  24350367.039
                  24350375.316          45.300                          48.100
 25  4 15  0  0  8.0000000  0 21R10G09R18G27G02G04R16G16G26R07R08R19
                                R09G07G08E26E13E04E19E21E23
 122282062.886 4                                  22939789.766    22939788.230
                                        29.400
 121595312.047 6  94749574.41345  90801661.921 7  23138814.641
  23138826.258    23138828.867          36.000          31.400          45.100
 112295817.673 6  87341107.686 6                  21036758.117    21036756.676
  21036765.313                          41.400          41.900
 106393726.844 7  82904287.96748  79449941.531 8  20246063.727
  20246074.125    20246074.039          46.100          50.400          52.800
 118619897.843 6  92431094.01144                  22572600.875
  22572610.457                          39.900          27.900
 122899095.686 5  95765559.56543  91775341.718 7  23386936.086
  23386949.438    23386954.664          33.600          19.600          42.300
 110126634.949 7  85654096.686 7                  20615934.453    20615933.863
  20615942.250                          45.400          44.500
 113260186.495 7  88254703.43545                  21552685.289
  21552694.219                          42.100          30.800
 122413455.206 6  95387114.71643  91412647.854 7  23294481.172
  23294496.047    23294495.625          36.900          23.000          43.200
 127068610.302 5  98831140.564 5                  23737496.953    23737494.727
  23737507.426                          32.300          33.700
 126642154.306 5  98499532.817 5                  23649545.406    23649545.172
  23649552.000                          33.300          30.900
 103765679.737 5  80706505.989 7                  19397854.453    19397853.012
  19397860.512                          35.300          44.200
 106321805.896 7  82694759.818 7                  19910657.055    19910656.645
  19910663.039                          44.900          47.500
 120546389.155 6  93932309.40245                  22939218.086
  22939226.980                          39.500          34.700
 106017584.943 7  82611175.35448  79169039.629 8  20174473.633
  20174484.113    20174484.105          46.100          48.900          52.200
 133597122.551 7                  99764141.658 7  25422682.664
                  25422692.211          42.700                          44.700
 131254927.800 7                  98015106.374 7  24976975.938
                  24976987.223          43.200                          46.300
 136827611.067 6                 102176482.224 7  26037433.578
                  26037444.070          39.000                          43.900
 136988406.986 5                 102296539.247 6  26068041.563
                  26068053.094          33.200                          36.200
 127665626.568 7                  95334759.511 8  24293959.680
                  24293968.891          46.000                          48.800
 127960942.817 7                  95555286.408 8  24350157.102
                  24350165.434          45.800                          48.000
 25  4 15  0  0  9.0000000  0 21R10G09R18G27G02G04R16G16G26R07R08R19
                                R09G07G08E26E13E04E19E21E23
 122278817.178 5                                  22939181.445    22939179.090
                                        30.500
 121597150.660 6  94751007.08745  90803034.903 7  23139164.453
  23139176.016    23139178.738          36.100          31.200          44.700
 112298834.119 6  87343453.818 6                  21037322.820    21037321.711
  21037330.379                          41.400          41.700
 106395210.676 7  82905444.19848  79451049.584 8  20246346.023
  20246356.379    20246356.328          46.000          50.400          52.900
 118616604.550 6  92428527.82944                  22571973.789
  22571983.664                          39.200          26.600
 122902002.440 5  95767824.56643  91777512.399 7  23387489.719
  23387502.598    23387507.777          34.000          19.600          42.500
 110128168.089 7  85655289.143 7                  20616221.406    20616220.703
  20616229.230                          45.600          45.000
 113262058.647 7  88256162.25545                  21553041.969
  21553050.484                          42.200          30.900
 122415951.042 6  95389059.53443  91414511.605 7  23294956.156
  23294970.852    23294970.516          37.100          21.700          43.100
 127071602.389 5  98833467.740 5                  23738056.102    23738053.980
  23738066.430                          32.000          33.100
 126642970.595 5  98500167.698 5                  23649698.430    23649697.582
  23649704.559                          33.900          31.600
 103765360.674 5  80706257.804 7                  19397794.609    19397793.316
  19397800.789                          35.200          44.200
 106320020.059 7  82693370.850 7                  19910322.867    19910322.219
  19910328.629                          44.700          47.700
 120543522.337 6  93930075.52845                  22938672.594
  22938681.395                          39.700          35.000
 106016585.757 7  82610396.77448  79168293.471 8  20174283.727
  20174293.930    20174293.973          46.300          48.900          52.100
 133594493.538 7                  99762178.446 7  25422182.305
                  25422191.793          43.000                          44.600
 131254686.027 7                  98014925.821 7  24976929.852
                  24976941.301          43.300                          46.400
 136828444.285 6                 102177104.419 7  26037592.406
                  26037602.660          39.400                          43.600
 136991149.873 5                 102298587.445 6  26068563.703
                  26068574.758          33.300                          36.300
 127666371.569 7                  95335315.862 8  24294101.711
                  24294110.582          45.900                          49.200
 127959840.599 7                  95554463.307 8  24349947.352
                  24349955.750          45.600                          48.300
 25  4 15  0  0 10.0000000  0 21R10G09R18G27G02G04R16G16G26R07R08R19
                                R09G07G08E26E13E04E19E21E23
 122275571.407 5                                  22938570.797    22938570.816
                                        30.200
 121598989.658 6  94752440.07145  90804408.164 7  23139513.953
  23139525.973    23139528.625          36.500          32.000          44.600
 112301851.160 6  87345800.407 6                  21037888.391    21037886.840
  21037895.746                          41.600          40.400
 106396694.924 7  82906600.74948  79452157.960 8  20246628.438
  20246638.641    20246638.801          46.200          50.000          52.600
 118613311.571 6  92425961.86244                  22571346.688
  22571356.941                          38.900          27.600
 122904909.381 5  95770089.71943  91779683.150 7  23388043.258
  23388055.891    23388060.965          34.200          19.600          42.500
 110129701.632 7  85656481.875 7                  20616508.094    20616508.012
  20616516.328                          45.400          43.700
 113263930.990 7  88257621.22545                  21553397.906
  21553406.664                          42.000          30.500
 122418446.954 6  95391004.39143  91416375.444 7  23295430.875
  23295445.848    23295445.480          37.200          21.500          43.700
 127074594.714 5  98835795.076 5                  23738613.148    23738613.250
  23738625.465                          31.700          33.600
 126643787.585 5  98500803.086 5                  23649851.703    23649849.270
  23649857.148                          33.600          32.100
 103765042.452 5  80706010.268 7                  19397734.742    19397734.031
  19397741.273                          35.000          43.600
 106318234.537 7  82691982.105 7                  19909988.094    19909987.836
  19909994.199                          44.900          46.500
 120540655.757 6  93927841.82445                  22938127.180
  22938136.004                          39.400          34.400
 106015587.018 7  82609618.52948  79167547.672 8  20174093.547
  20174103.848    20174104.023          46.100          48.700          52.000
 133591864.745 7                  99760215.371 7  25421682.047
                  25421691.574          43.100                          44.800
 131254444.726 7                  98014745.625 7  24976883.867
                  24976895.473          43.600                          46.400
 136829277.857 6                 102177726.919 7  26037751.078
                  26037761.277          39.600                          43.500
 136993892.749 5                 102300635.677 6  26069085.500
                  26069097.004          32.900                          36.400
 127667116.667 7                  95335872.265 8  24294243.234
                  24294252.469          46.300                          48.900
 127958738.423 7                  95553640.265 8  24349737.750
                  24349746.012          45.700                          48.100
 25  4 15  0  0 11.0000000  0 21R10G09R18G27G02G04R16G16G26R07R08R19
                                R09G07G08E26E13E04E19E21E23
 122272325.511 5                                  22937962.539    22937961.406
                                        30.100
 121600829.086 6  94753873.39245  90805781.747 7  23139864.430
  23139876.070    23139878.828          36.900          32.000          44.800
 112304868.775 6  87348147.423 6                  21038453.461    21038452.051
  21038460.984                          41.400          41.300
 106398179.634 7  82907757.66948  79453266.672 8  20246911.063
  20246921.340    20246921.363          46.300          50.300          53.000
 118610018.835 6  92423396.11244                  22570720.859
  22570730.398                          38.900          26.700
 122907816.512 5  95772355.00843  91781854.044 7  23388596.336
  23388609.219    23388614.301          33.400          19.300          42.600
 110131235.582 7  85657674.953 7                  20616794.008    20616795.137
  20616803.477                          45.400          44.200
 113265803.538 6  88259080.33945                  21553754.227
  21553763.105                          41.400          31.500
 122420943.062 6  95392949.40043  91418239.410 7  23295905.516
  23295920.750    23295920.359          36.700          21.800          43.700
 127077587.302 5  98838122.661 5                  23739172.383    23739172.465
  23739184.414                          31.700          33.400
 126644605.301 5  98501439.095 5                  23650003.008    23650002.031
  23650009.996                          33.500          32.800
 103764725.099 5  80705763.459 7                  19397676.305    19397674.953
  19397682.047                          34.500          43.700
 106316449.346 7  82690593.624 7                  19909654.820    19909653.535
  19909659.875                          44.700          47.000
 120537789.433 6  93925608.32945                  22937581.656
  22937590.438                          39.200          34.400
 106014588.813 7  82608840.71048  79166802.257 8  20173903.539
  20173914.016    20173913.973          46.000          49.100          52.300
 133589236.178 7                  99758252.490 7  25421181.617
                  25421191.277          43.000                          45.100
 131254203.933 7                  98014565.804 7  24976838.148
                  24976849.605          43.200                          46.800
 136830111.881 6                 102178349.737 7  26037909.734
                  26037920.059          39.700                          43.700
 136996635.723 5                 102302684.014 6  26069607.508
                  26069618.848          32.900                          36.200
 127667861.888 7                  95336428.748 8  24294385.227
                  24294394.262          46.300                          48.900
 127957636.305 7                  95552817.254 8  24349527.688
                  24349536.320          45.300                          48.500
 25  4 15  0  0 12.0000000  0 21R10G09R18G27G02G04R16G16G26R07R08R19
                                R09G07G08E26E13E04E19E21E23
 122269079.606 5                                  22937353.867    22937352.379
                                        30.100
 121602668.904 6  94755307.00845  90807155.649 7  23140215.008
  23140226.070    23140228.863          36.400          31.600          45.000
 112307887.012 6  87350494.941 6                  21039018.289    21039017.348
  21039026.289                          41.500          41.800
 106399664.787 7  82908914.92748  79454375.696 8  20247193.805
  20247203.840    20247203.891          46.600          50.300          52.600
 118606726.381 6  92420830.55244                  22570094.625
  22570103.934                          39.300          27.000
 122910723.731 5  95774620.38743  91784025.030 7  23389149.469
  23389162.477    23389167.621          33.700          19.300          42.600
 110132769.941 7  85658868.332 7                  20617081.852    20617082.266
  20617090.637                          45.200          44.600
 113267676.284 6  88260539.62845                  21554110.625
  21554119.660                          41.700          31.100
 122423439.259 6  95394894.48743  91420103.449 7  23296380.477
  23296395.879    23296395.426          36.700          22.200          43.800
 127080580.212 5  98840450.455 5                  23739731.844    23739731.523
  23739743.480                          32.000          33.400
 126645423.816 5  98502075.689 5                  23650157.859    23650155.383
  23650162.773                          33.300          32.600
 103764408.741 5  80705517.385 7                  19397618.438    19397615.379
  19397622.934                          34.900          44.000
 106314664.471 7  82689205.378 7                  19909320.523    19909319.242
  19909325.586                          45.300          46.900
 120534923.355 6  93923375.02245                  22937036.609
  22937045.207                          39.500          34.800
 106013591.083 7  82608063.26148  79166057.203 8  20173713.750
  20173724.066    20173724.098          45.900          49.100          52.100
 133586607.837 7                  99756289.763 7  25420681.461
                  25420691.156          42.800                          44.900
 131253963.612 7                  98014386.353 7  24976792.508
                  24976803.887          43.100                          47.100
 136830946.391 6                 102178972.858 7  26038068.539
                  26038078.902          39.700                          43.500
 136999378.803 5                 102304732.413 6  26070129.555
                  26070140.836          33.300                          36.600
 127668607.195 7                  95336985.311 8  24294527.023
                  24294536.078          46.300                          48.600
 127956534.274 7                  95551994.307 8  24349318.305
                  24349326.734          44.900                          48.200
 25  4 15  0  0 13.0000000  0 21R10G09R18G27G02G04R16G16G26R07R08R19
                                R09G07G08E26E13E04E19E21E23
 122265833.723 5                                  22936745.492    22936743.488
                                        30.100
 121604509.153 5  94756740.96945  90808529.871 7  23140565.406
  23140576.117    23140579.191          35.700          31.700          44.900
 112310905.857 6  87352842.927 7                  21039583.859    21039583.086
  21039591.934                          41.100          42.100
 106401150.377 7  82910072.53448  79455485.080 8  20247476.453
  20247486.586    20247486.586          46.500          50.500          52.700
 118603434.228 6  92418265.22844                  22569467.766
  22569477.313                          39.400          26.900
 122913631.164 5  95776885.89843  91786196.156 7  23389702.867
  23389715.758    23389720.723          34.100          19.000          42.700
 110134304.728 7  85660062.059 7                  20617368.758    20617369.824
  20617377.949                          45.400          44.600
 113269549.251 6  88261999.08545                  21554466.938
  21554475.953                          41.800          31.400
 122425935.636 6  95396839.72443  91421967.622 7  23296855.828
  23296870.941    23296870.488          36.100          22.900          43.700
 127083573.435 5  98842778.548 5                  23740291.492    23740290.785
  23740302.684                          32.200          33.300
 126646242.995 5  98502712.847 5                  23650309.602    23650308.145
  23650315.750                          32.900          32.500
 103764093.254 5  80705272.042 7                  19397558.266    19397556.469
  19397563.926                          34.900          44.200
 106312879.928 7  82687817.413 7                  19908985.844    19908985.098
  19908991.484                          44.700          46.900
 120532057.550 6  93921141.92945                  22936490.891
  22936499.898                          39.600          35.000
 106012593.866 7  82607286.20748  79165312.535 8  20173523.891
  20173534.324    20173534.336          46.400          49.100          52.100
 133583979.737 7                  99754327.225 7  25420181.109
                  25420191.059          43.000                          44.900
 131253723.802 7                  98014207.269 7  24976746.734
                  24976758.336          42.900                          46.700
 136831781.221 6                 102179596.300 7  26038227.359
                  26038237.633          39.900                          43.700
 137002121.904 5                 102306780.848 6  26070651.625
                  26070662.824          33.600                          36.600
 127669352.605 7                  95337541.959 8  24294668.898
                  24294677.926          45.900                          48.500
 127955432.306 7                  95551171.410 8  24349108.500
                  24349117.023          45.100                          48.400
 25  4 15  0  0 14.0000000  0 21R10G09R18G27G02G04R16G16G26R07R08R19
                                R09G07G08E26E13E04E19E21E23
 122262587.789 4                                  22936136.188    22936134.531
                                        29.300
 121606349.862 6  94758175.28345  90809904.380 7  23140914.992
  23140926.258    23140929.477          36.000          31.400          44.700
 112313925.299 6  87355191.379 7                  21040149.695    21040148.684
  21040157.586                          41.100          42.400
 106402636.431 7  82911230.49548  79456594.785 8  20247759.227
  20247769.418    20247769.457          46.500          50.300          52.700
 118600142.334 6  92415700.12744                  22568842.000
  22568851.020                          39.500          27.100
 122916538.772 5  95779151.54843  91788367.388 7  23390255.688
  23390268.840    23390274.352          33.900          19.600          43.200
 110135839.941 7  85661256.119 7                  20617657.141    20617656.918
  20617665.480                          45.500          44.700
 113271422.391 6  88263458.66845                  21554823.703
  21554832.355                          41.800          30.900
 122428432.155 6  95398785.05843  91423831.920 7  23297330.586
  23297346.199    23297345.523          36.200          22.600          43.800
 127086566.943 5  98845106.776 5                  23740850.242    23740850.098
  23740861.875                          32.200          33.100
 126647062.823 5  98503350.545 5                  23650462.672    23650461.113
  23650468.926                          33.000          32.800
 103763778.710 5  80705027.393 7                  19397499.125    19397498.051
  19397505.145                          34.700          44.400
 106311095.707 7  82686429.684 7                  19908651.336    19908651.090
  19908657.238                          44.700          47.300
 120529192.013 6  93918909.05445                  22935946.273
  22935954.707                          39.800          35.100
 106011597.140 7  82606509.54248  79164568.227 8  20173334.367
  20173344.656    20173344.746          45.800          49.000          52.100
 133581351.884 7                  99752364.863 7  25419681.102
                  25419690.840          42.600                          44.800
 131253484.490 7                  98014028.566 7  24976701.180
                  24976712.750          43.000                          46.400
 136832616.544 6                 102180220.077 7  26038386.609
                  26038396.730          39.600                          43.700
 137004865.113 5                 102308829.346 6  26071173.367
                  26071184.863          32.800                          36.400
 127670098.142 7                  95338098.669 8  24294810.836
                  24294819.773          45.700                          48.500
 127954330.404 7                  95550348.559 8  24348898.711
                  24348907.363          45.300                          48.600
 25  4 15  0  0 15.0000000  0 21R10G09R18G27G02G04R16G16G26R07R08R19
                                R09G07G08E26E13E04E19E21E23
 122259341.809 4                                  22935528.852    22935525.504
                                        29.600
 121608190.881 5  94759609.84045  90811279.202 7  23141264.938
  23141276.621    23141279.785          35.800          30.900          44.500
 112316945.335 6  87357540.296 7                  21040715.266    21040714.344
  21040723.359                          41.300          42.300
 106404122.921 7  82912388.79448  79457704.820 8  20248041.742
  20248052.273    20248052.262          46.600          50.300          52.500
 118596850.720 6  92413135.23544                  22568215.367
  22568224.719                          39.600          25.900
 122919446.506 5  95781417.34343  91790538.739 7  23390809.578
  23390822.094    23390827.328          33.700          19.900          42.900
 110137375.599 7  85662450.526 7                  20617944.297    20617944.234
  20617953.016                          45.400          44.700
 113273295.745 6  88264918.42545                  21555179.984
  21555188.723                          41.600          31.300
 122430928.874 5  95400730.53843  91425696.286 7  23297805.609
  23297821.148    23297820.535          35.700          22.900          43.900
 127089560.724 5  98847435.254 5                  23741408.945    23741408.844
  23741421.219                          31.700          33.700
 126647883.408 5  98503988.740 5                  23650614.984    23650614.703
  23650622.004                          32.500          31.900
 103763465.077 5  80704783.475 7                  19397441.313    19397439.820
  19397446.340                          35.100          44.500
 106309311.775 7  82685042.174 7                  19908317.609    19908317.059
  19908323.188                          45.200          47.600
 120526326.718 6  93916676.35345                  22935400.547
  22935409.422                          39.900          34.900
 106010600.919 7  82605733.26248  79163824.290 8  20173144.570
  20173155.129    20173155.086          45.800          49.000          52.100
 133578724.229 7                  99750402.657 7  25419181.070
                  25419190.766          42.700                          44.800
 131253245.677 7                  98013850.226 7  24976655.969
                  24976667.238          43.000                          46.400
 136833452.276 6                 102180844.135 7  26038545.875
                  26038555.648          39.500                          43.900
 137007608.377 5                 102310877.863 6  26071695.258
                  26071707.398          33.300                          36.700
 127670843.765 7                  95338655.464 8  24294952.688
                  24294961.699          45.700                          49.000
 127953228.569 7                  95549525.764 8  24348689.102
                  24348697.629          45.400                          48.600
 25  4 15  0  0 16.0000000  0 21R10G09R18G27G02G04R16G16G26R07R08R19
                                R09G07G08E26E13E04E19E21E23
 122256095.808 5                                  22934918.484    22934916.727
                                        30.100
 121610032.418 5  94761044.80945  90812654.349 7  23141615.641
  23141626.867    23141630.156          35.900          32.100          44.700
 112319965.964 6  87359889.688 7                  21041281.055    21041279.938
  21041289.230                          41.300          42.100
 106405609.884 7  82913547.47148  79458815.215 8  20248324.969
  20248335.262    20248335.230          46.300          50.300          52.700
 118593559.412 6  92410570.58344                  22567589.109
  22567598.316                          39.400          27.000
 122922354.400 5  95783683.22343  91792710.232 7  23391362.305
  23391375.496    23391380.906          33.700          19.600          43.200
 110138911.752 7  85663645.294 7                  20618232.195    20618232.000
  20618240.605                          45.300          44.700
 113275169.295 6  88266378.33545                  21555536.766
  21555545.297                          41.600          31.300
 122433425.650 6  95402676.06343  91427560.791 7  23298280.992
  23298296.402    23298295.848          36.400          22.600          43.800
 127092554.720 5  98849763.971 5                  23741969.102    23741968.652
  23741980.449                          31.900          33.100
 126648704.729 5  98504627.516 5                  23650768.953    23650767.547
  23650775.355                          32.500          32.300
 103763152.412 5  80704540.284 7                  19397382.945    19397381.027
  19397388.043                          35.400          44.400
 106307528.167 7  82683654.929 7                  19907983.828    19907983.031
  19907989.203                          45.200          47.600
 120523461.681 6  93914443.85345                  22934854.906
  22934864.246                          39.800          35.700
 106009605.220 7  82604957.39648  79163080.736 8  20172955.242
  20172965.672    20172965.660          45.300          48.900          52.600
 133576096.841 7                  99748440.655 7  25418681.484
                  25418690.805          42.500                          44.700
 131253007.371 7                  98013672.270 7  24976610.695
                  24976621.898          43.300                          46.500
 136834288.439 6                 102181468.559 7  26038704.547
                  26038714.949          39.600                          43.600
 137010351.757 5                 102312926.485 6  26072217.523
                  26072229.332          33.400                          36.100
 127671589.495 7                  95339212.337 8  24295094.703
                  24295103.570          45.700                          48.900
 127952126.812 7                  95548703.014 8  24348479.523
                  24348487.961          45.000                          48.300
 25  4 15  0  0 17.0000000  0 21R10G09R18G27G02G04R16G16G26R07R08R19
                                R09G07G08E26E13E04E19E21E23
 122252849.831 4                                  22934307.469    22934307.750
                                        29.800
 121611874.353 5  94762480.08245  90814029.811 7  23141966.578
  23141977.645    23141980.531          35.900          31.500          44.700
 112322987.218 6  87362239.545 7                  21041846.391    21041845.375
  21041855.215                          41.200          42.600
 106407097.266 7  82914706.47148  79459925.942 8  20248608.109
  20248618.293    20248618.305          46.500          50.300          52.500
 118590268.405 6  92408006.16344                  22566962.906
  22566972.047                          39.100          27.800
 122925262.478 5  95785949.23843  91794881.846 7  23391916.273
  23391928.934    23391934.355          33.800          20.400          43.200
 110140448.330 7  85664840.401 7                  20618519.445    20618519.699
  20618528.215                          45.800          44.800
 113277043.060 6  88267838.41345                  21555892.813
  21555901.863                          41.700          30.500
 122435922.619 6  95404621.75243  91429425.400 7  23298756.914
  23298771.555    23298770.848          36.700          22.500          44.100
 127095549.007 5  98852092.835 5                  23742530.016    23742528.211
  23742539.664                          31.000          33.000
 126649526.800 5  98505266.883 5                  23650923.164    23650920.945
  23650928.910                          32.200          32.600
 103762840.637 5  80704297.806 7                  19397325.000    19397322.672
  19397329.777                          35.100          44.300
 106305744.862 7  82682267.904 7                  19907649.664    19907649.043
  19907655.316                          45.200          47.500
 120520596.917 6  93912211.57145                  22934310.313
  22934318.996                          39.000          35.100
 106008609.994 7  82604181.89848  79162337.563 8  20172765.242
  20172776.215    20172776.340          45.300          48.900          52.300
 133573469.694 7                  99746478.810 7  25418181.617
                  25418190.945          42.800                          44.200
 131252769.553 7                  98013494.687 7  24976565.203
                  24976576.707          43.600                          46.600
 136835125.037 6                 102182093.292 7  26038864.125
                  26038874.086          39.500                          43.400
 137013095.210 5                 102314975.153 6  26072739.680
                  26072751.176          33.000                          36.200
 127672335.340 7                  95339769.303 8  24295236.398
                  24295245.555          45.600                          48.900
 127951025.130 7                  95547880.340 8  24348269.992
                  24348278.383          44.900                          48.500
 25  4 15  0  0 18.0000000  0 21R10G09R18G27G02G04R16G16G26R07R08R19
                                R09G07G08E26E13E04E19E21E23
 122249603.756 5                                  22933700.672    22933698.883
                                        30.800
 121613716.674 5  94763915.65845  90815405.571 7  23142316.570
  23142328.391    23142331.309          35.800          32.100          44.800
 112326009.081 6  87364589.877 7                  21042412.672    21042411.855
  21042421.281                          41.300          42.200
 106408585.134 7  82915865.84948  79461037.002 8  20248891.438
  20248901.367    20248901.445          46.300          50.300          52.700
 118586977.641 6  92405441.93944                  22566337.133
  22566345.902                          39.200          27.400
 122928170.720 5  95788215.41543  91797053.578 7  23392469.516
  23392482.367    23392487.652          33.500          19.900          42.900
 110141985.315 7  85666035.833 7                  20618807.984    20618807.512
  20618816.008                          45.300          44.700
 113278917.057 6  88269298.66645                  21556249.750
  21556258.402                          41.700          31.400
 122438419.755 6  95406567.57943  91431290.123 7  23299232.359
  23299246.711    23299246.148          36.300          22.600          43.500
 127098543.547 5  98854421.955 5                  23743088.070    23743087.359
  23743099.051                          30.900          32.800
 126650349.607 5  98505906.838 5                  23651076.227    23651074.332
  23651082.672                          32.200          32.800
 103762529.843 5  80704056.073 7                  19397266.586    19397264.355
  19397271.648                          35.000          44.000
 106303961.892 7  82680881.152 7                  19907315.258    19907315.277
  19907321.500                          45.000          47.500
 120517732.420 6  93909979.49645                  22933765.344
  22933773.863                          39.500          34.600
 106007615.279 7  82603406.79248  79161594.763 8  20172576.609
  20172587.023    20172587.148          45.400          49.000          52.300
 133570842.771 7                  99744517.146 7  25417681.445
                  25417690.941          42.800                          44.600
 131252532.256 7                  98013317.477 7  24976520.352
                  24976531.539          43.500                          46.700
 136835962.031 6                 102182718.337 7  26039023.211
                  26039033.355          39.000                          43.000
 137015838.734 5                 102317023.905 6  26073261.813
                  26073273.090          33.500                          36.700
 127673081.277 7                  95340326.341 8  24295378.336
                  24295387.484          45.600                          48.800
 127949923.503 7                  95547057.698 8  24348060.391
                  24348068.809          44.700                          49.100
 25  4 15  0  0 19.0000000  0 21R10G09R18G27G02G04R16G16G26R07R08R19
                                R09G07G08E26E13E04E19E21E23
 122246357.634 5                                  22933090.961    22933090.301
                                        30.300
 121615559.394 5  94765351.54545  90816781.656 7  23142666.945
